{
"type": "FeatureCollection",
"name": "Fire_Stations",
"crs": { "type": "name", "properties": { "name": "urn:ogc:def:crs:OGC:1.3:CRS84" } },
"features": [
{ "type": "Feature", "properties": { "OBJECTID": 26, "NAME": "Fire Station 93", "NAME_CAP": "FIRE STATION 93", "ADDRESS": "2930 MAJOR MACKENZIE DR E", "X_COORD": 630987.1826, "Y_COORD": 4860490.1654000003, "TYPE": "Fire Station", "LABEL": "93", "GLOBALID": "{00D49870-26EC-4703-B68E-17510592CD34}" }, "geometry": { "type": "Point", "coordinates": [ -79.36935061376991, 43.885887998630785 ] } },
{ "type": "Feature", "properties": { "OBJECTID": 192, "NAME": "Fire Station 96", "NAME_CAP": "FIRE STATION 96", "ADDRESS": "5567 14TH AVE", "X_COORD": 639099.0424, "Y_COORD": 4856821.077, "TYPE": "Fire Station", "LABEL": "96", "GLOBALID": "{D6409D58-217F-4F2A-9FA6-04BD2B492B13}" }, "geometry": { "type": "Point", "coordinates": [ -79.26936663702044, 43.851382328730253 ] } },
{ "type": "Feature", "properties": { "OBJECTID": 201, "NAME": "Fire Station 99", "NAME_CAP": "FIRE STATION 99", "ADDRESS": "3255 BUR OAK AVE", "X_COORD": 642375.3039000001, "Y_COORD": 4860486.6753000002, "TYPE": "Fire Station", "LABEL": "99", "GLOBALID": "{0E7BF1E0-2347-4794-ABFF-DCDDD9628E13}" }, "geometry": { "type": "Point", "coordinates": [ -79.227645705499384, 43.883746094767993 ] } },
{ "type": "Feature", "properties": { "OBJECTID": 237, "NAME": "Fire Station 94", "NAME_CAP": "FIRE STATION 94", "ADDRESS": "7300 BIRCHMOUNT RD", "X_COORD": 635163.9992, "Y_COORD": 4854540.7085999995, "TYPE": "Fire Station", "LABEL": "94", "GLOBALID": "{36F8B86A-BC7B-4346-93A2-461DEC551048}" }, "geometry": { "type": "Point", "coordinates": [ -79.318880922641853, 43.831590113186039 ] } },
{ "type": "Feature", "properties": { "OBJECTID": 264, "NAME": "Fire Station 98", "NAME_CAP": "FIRE STATION 98", "ADDRESS": "650 BUR OAK AVE", "X_COORD": 637351.5206, "Y_COORD": 4861671.1568, "TYPE": "Fire Station", "LABEL": "98", "GLOBALID": "{A8A9DBE3-04AE-4FAF-B67C-A77FAAD0B978}" }, "geometry": { "type": "Point", "coordinates": [ -79.289851147299288, 43.895358713648683 ] } },
{ "type": "Feature", "properties": { "OBJECTID": 298, "NAME": "Fire Station 92", "NAME_CAP": "FIRE STATION 92", "ADDRESS": "10 RIVIERA DR", "X_COORD": 632573.8441, "Y_COORD": 4854429.4814999998, "TYPE": "Fire Station", "LABEL": "92", "GLOBALID": "{AA2D61AE-3A95-490E-9B4E-1AB51157EBC9}" }, "geometry": { "type": "Point", "coordinates": [ -79.351110638400357, 43.831058345369485 ] } },
{ "type": "Feature", "properties": { "OBJECTID": 322, "NAME": "Fire Station 91", "NAME_CAP": "FIRE STATION 91", "ADDRESS": "7801 BAYVIEW AVE", "X_COORD": 628564.799, "Y_COORD": 4853318.5388000002, "TYPE": "Fire Station", "LABEL": "91", "GLOBALID": "{BE11FA5D-D1B1-46DC-9570-CFF6DB7E2EE8}" }, "geometry": { "type": "Point", "coordinates": [ -79.40122080686281, 43.821768002495638 ] } },
{ "type": "Feature", "properties": { "OBJECTID": 333, "NAME": "Fire Station 95 & HQ", "NAME_CAP": "FIRE STATION 95", "ADDRESS": "316 MAIN ST", "X_COORD": 635466.1559, "Y_COORD": 4859484.3064000001, "TYPE": "Fire Station", "LABEL": "95", "GLOBALID": "{17060C7D-5AF0-49C7-9E41-E676FF892E95}" }, "geometry": { "type": "Point", "coordinates": [ -79.313870947453537, 43.876026367294081 ] } },
{ "type": "Feature", "properties": { "OBJECTID": 351, "NAME": "Fire Station 97", "NAME_CAP": "FIRE STATION 97", "ADDRESS": "209 MAIN ST N", "X_COORD": 639658.0606, "Y_COORD": 4860316.0569000002, "TYPE": "Fire Station", "LABEL": "97", "GLOBALID": "{67019A27-F278-4FA7-855F-3DC0F66DA60B}" }, "geometry": { "type": "Point", "coordinates": [ -79.261500423727227, 43.882730131253645 ] } }
]
}
